[{"id":"21a98502-27ed-417b-b267-60eb969410f6","GID_2":"PK1","municipality":"Islamabad, Pakistan","suggested_area":true,"score":1200,"longitude":73.084488,"latitude":33.738045,"facility_name":"","pvout_average_mean":1549.6,"pvout_average_min":1490.3,"pvout_average_max":1567.5,"population":2006572,"count":336182},{"id":"a1a625e8-4ad1-4a23-91fb-25b649696e85","GID_2":"PK2","municipality":"Muzaffarabad, AJK","suggested_area":true,"score":1300,"longitude":73.4769,"latitude":34.3551,"facility_name":"","pvout_average_mean":1539.6,"pvout_average_min":1524,"pvout_average_max":1746.5,"population":675413,"count":106854},{"id":"1cb21743-8d79-4a8e-968f-0192f17dfc36","GID_2":"PK3","municipality":"Poonch, AJK","suggested_area":true,"score":1260,"longitude":73.7604,"latitude":33.8578,"facility_name":"","pvout_average_mean":1628.9,"pvout_average_min":1666.9,"pvout_average_max":1788,"population":511055,"count":80892},{"id":"2bb6fd40-be19-4166-bd17-37919292e48f","GID_2":"PK4","municipality":"Neelum, AJK","suggested_area":true,"score":1000,"longitude":74.2986,"latitude":34.8174,"facility_name":"","pvout_average_mean":1390.6,"pvout_average_min":1187.8,"pvout_average_max":1490.6,"population":199870,"count":31660},{"id":"2d8302ad-f81d-4e14-bf69-b87bd6e4433e","GID_2":"PK5","municipality":"Bhimber, AJK","suggested_area":true,"score":1300,"longitude":74.067,"latitude":32.983,"facility_name":"","pvout_average_mean":1335.94,"pvout_average_min":1500,"pvout_average_max":1735,"population":445591,"count":69020},{"id":"5be3526c-1b86-4c8d-b2c7-2434b15b2ab5","GID_2":"PK6","municipality":"Mirpur, AJK","suggested_area":true,"score":1324,"longitude":73.767,"latitude":33.183,"facility_name":"","pvout_average_mean":1546.85,"pvout_average_min":1386.3,"pvout_average_max":1750,"population":471481,"count":74560},{"id":"ce3c3432-8c6c-4b5f-84bb-8974b7c62a86","GID_2":"PK7","municipality":"Kotli, AJK","suggested_area":true,"score":1434,"longitude":73.899167,"latitude":33.505556,"facility_name":"","pvout_average_mean":1519.8,"pvout_average_min":1497,"pvout_average_max":1767,"population":800554,"count":126642},{"id":"9506c832-29a4-428b-b68f-0213b3f92a34","GID_2":"PK8","municipality":"Sudhanoti, AJK","suggested_area":true,"score":1476,"longitude":73.753157,"latitude":33.664925,"facility_name":"","pvout_average_mean":1631.7,"pvout_average_min":1512,"pvout_average_max":1777,"population":306596,"count":48599},{"id":"57f69049-107e-4c91-9c98-a6513a8ac251","GID_2":"PK9","municipality":"Haveli, AJK","suggested_area":true,"score":1322,"longitude":74.11295,"latitude":33.92591,"facility_name":"","pvout_average_mean":1504.7,"pvout_average_min":1554.7,"pvout_average_max":1752,"population":157146,"count":24853},{"id":"70f9ddd4-c6e6-4f3a-9895-b6c83ba001a6","GID_2":"PK10","municipality":"Bagh, AJK","suggested_area":true,"score":1354,"longitude":73.75769,"latitude":33.99611,"facility_name":"","pvout_average_mean":1549,"pvout_average_min":1577,"pvout_average_max":1766,"population":382942,"count":60630},{"id":"48118a64-71e1-4a83-8a84-bab84cfdc54b","GID_2":"PK11","municipality":"Jhelum Valley, AJK","suggested_area":true,"score":1344,"longitude":73.753157,"latitude":33.664925,"facility_name":"","pvout_average_mean":1532.5,"pvout_average_min":1470,"pvout_average_max":1680,"population":238625,"count":37834},{"id":"bd38b3cb-439c-48fa-b8e0-21b34d152e96","GID_2":"PK12","municipality":"Lahore, Punjab","suggested_area":true,"score":2400,"longitude":74.358749,"latitude":31.52037,"facility_name":"","pvout_average_mean":1626.4908167830492,"pvout_average_min":1622.367063415326,"pvout_average_max":1630.6349479247242,"population":11126285,"count":1757691},{"id":"778b33f2-588b-4dcb-b4e1-ad20ef4deb48","GID_2":"PK13","municipality":"Faisalabad, Punjab","suggested_area":true,"score":1233,"longitude":73.134964,"latitude":31.450365,"facility_name":"","pvout_average_mean":1484.5719247059387,"pvout_average_min":1461.4224185083863,"pvout_average_max":1605.731629946395,"population":7873910,"count":1225266},{"id":"491df3b6-924b-4786-af54-aacf025fc75d","GID_2":"PK14","municipality":"Sahiwal, Punjab","suggested_area":true,"score":3200,"longitude":73.102013,"latitude":30.666121,"facility_name":"","pvout_average_mean":1450.8588174798367,"pvout_average_min":1413.1540646692083,"pvout_average_max":1489.1929965141912,"population":2517560,"count":392509},{"id":"a84fd86f-d7dd-43d0-a5a7-474b25b00155","GID_2":"PK15","municipality":"Bahawalpur, Punjab","suggested_area":true,"score":5600,"longitude":71.6638747,"latitude":29.394644,"facility_name":"","pvout_average_mean":1505.6337338986311,"pvout_average_min":1500.7971995223031,"pvout_average_max":1510.904812366197,"population":3668106,"count":584864},{"id":"ca86ca58-225b-4797-be0a-1eb0162dfe53","GID_2":"PK16","municipality":"Dera Ghazi Khan, Punjab","suggested_area":true,"score":5454,"longitude":70.635063,"latitude":30.0604,"facility_name":"","pvout_average_mean":1383.5271931308125,"pvout_average_min":1376.0242771180738,"pvout_average_max":1390.2121576902246,"population":2872201,"count":343361},{"id":"5b56f9af-abbb-49ff-bd1b-c5b33fb204e8","GID_2":"PK17","municipality":"Multan, Punjab","suggested_area":true,"score":2342,"longitude":71.4724978,"latitude":30.1979793,"facility_name":"","pvout_average_mean":1358.824434492648,"pvout_average_min":1348.4275430284974,"pvout_average_max":1366.1274184858748,"population":4745109,"count":760858},{"id":"671019b1-faa9-4f88-9602-27bfd9bcc754","GID_2":"PK18","municipality":"Jacobabad, Sindh","suggested_area":true,"score":2344,"longitude":68.4364361,"latitude":28.2813094,"facility_name":"","pvout_average_mean":1449.488448272941,"pvout_average_min":1439.625885268389,"pvout_average_max":1458.678384554588,"population":1006297,"count":177867},{"id":"3844d165-5bbf-43b2-8d6d-f54a6d507ec3","GID_2":"PK19","municipality":"Karachi, Sindh","suggested_area":true,"score":5443,"longitude":67.0207055,"latitude":24.8546842,"facility_name":"","pvout_average_mean":1553.2898326481286,"pvout_average_min":1547.0554474269884,"pvout_average_max":1560.243131056364,"population":16051521,"count":2770074},{"id":"44bab47b-5be7-41f5-8321-95d3353531c3","GID_2":"PK20","municipality":"Mirpur Khas, Sindh","suggested_area":true,"score":2342,"longitude":69.0110617,"latitude":25.5262817,"facility_name":"","pvout_average_mean":1368.2944277167278,"pvout_average_min":1365.5178252232758,"pvout_average_max":1370.8708555246765,"population":1505876,"count":286547},{"id":"712a1d52-dd78-467b-9d2e-592dd4412a06","GID_2":"PK21","municipality":"Sibi, Balochistan ","suggested_area":true,"score":3453,"longitude":67.8833398,"latitude":29.5500097,"facility_name":"","pvout_average_mean":1546.5548878761638,"pvout_average_min":1544.3989800347222,"pvout_average_max":1548.8929660373265,"population":1038010,"count":158643},{"id":"d7f72a35-ce23-4495-9696-cbca318fa032","GID_2":"PK22","municipality":"Zhob, Balochistan ","suggested_area":true,"score":9200,"longitude":69.4476997,"latitude":31.3397058,"facility_name":"","pvout_average_mean":1439.744381674705,"pvout_average_min":1432.6039603535255,"pvout_average_max":1451.639277012504,"population":1542447,"count":227396},{"id":"6034c76f-8710-45c6-8010-30e81d582259","GID_2":"PK23","municipality":"Loralai, Balochistan ","suggested_area":true,"score":1500,"longitude":68.6000654,"latitude":30.366865,"facility_name":"","pvout_average_mean":1509.6915046222596,"pvout_average_min":1501.6122323724287,"pvout_average_max":1517.056298828125,"population":397400,"count":55876},{"id":"6423e1e7-a244-4906-9dfe-a1cb22d7716b","GID_2":"PK24","municipality":"Nasirabad, Balochistan","suggested_area":true,"score":1564,"longitude":68.166667,"latitude":28.333333,"facility_name":"","pvout_average_mean":1505.7624994376156,"pvout_average_min":1500.8450062939578,"pvout_average_max":1509.7958653442695,"population":1591144,"count":231664},{"id":"75fc042f-8418-4d8b-82bb-b605627e6960","GID_2":"PK25","municipality":"Rawalpindi, Punjab","suggested_area":true,"score":1800,"longitude":73.0535122,"latitude":33.5914237,"facility_name":"","pvout_average_mean":1466.7497280818525,"pvout_average_min":1458.559668454257,"pvout_average_max":1472.5781319358132,"population":5405633,"count":888765},{"id":"b16a7f3f-76ff-425d-bca2-9440ea6ba4b5","GID_2":"PK26","municipality":"Bannu, Khyber Pakhtunkhwa","suggested_area":true,"score":3400,"longitude":70.604164,"latitude":32.986111,"facility_name":"","pvout_average_mean":1428.7663517392082,"pvout_average_min":1422.508632168448,"pvout_average_max":1434.2111846362154,"population":1167892,"count":119993},{"id":"cb66e87e-8ceb-49eb-837f-8999e724dc40","GID_2":"PK27","municipality":"Lakki Marwat, Khyber Pakhtunkhwa","suggested_area":true,"score":1840,"longitude":70.9113599,"latitude":32.5691662,"facility_name":"","pvout_average_mean":1459.9853311127656,"pvout_average_min":1456.2290689343604,"pvout_average_max":1465.2089125018254,"population":876182,"count":98051},{"id":"e494fe01-aeb7-47e4-b6e9-e48504a51c78","GID_2":"PK28","municipality":"Dera Ismail Khan, Khyber Pakhtunkhwa","suggested_area":true,"score":1273,"longitude":70.9090919,"latitude":31.827527,"facility_name":"","pvout_average_mean":1505.4519098989626,"pvout_average_min":1442.1924903415213,"pvout_average_max":1547.9638277729478,"population":1627132,"count":201301},{"id":"abc73a65-58cf-441c-ba28-03d60efe60a2","GID_2":"PK29","municipality":"Tank, Khyber Pakhtunkhwa","suggested_area":true,"score":1600,"longitude":70.3881146,"latitude":32.2096916,"facility_name":"","pvout_average_mean":1473.204387487757,"pvout_average_min":1465.9043517868881,"pvout_average_max":1478.5876239665504,"population":391885,"count":43071},{"id":"bef89d4e-04ad-4751-95a2-90b9e149c966","GID_2":"PK30","municipality":"Abbottabad, Khyber Pakhtunkhwa","suggested_area":true,"score":1200,"longitude":73.2142212,"latitude":34.1448298,"facility_name":"","pvout_average_mean":1424.7196825580909,"pvout_average_min":1413.0110045594054,"pvout_average_max":1436.290077506722,"population":1332912,"count":216534},{"id":"31d9a536-531d-423c-bde2-a815d1a742da","GID_2":"PK31","municipality":"BATAGRAM, Khyber Pakhtunkhwa","suggested_area":true,"score":1600,"longitude":71.6260552,"latitude":34.2193996,"facility_name":"","pvout_average_mean":1519.7187375609192,"pvout_average_min":1501.6415778712224,"pvout_average_max":1533.0769199572112,"population":476612,"count":69525},{"id":"b475dacd-7d1e-4dfb-a486-3ac3103cf88a","GID_2":"PK32","municipality":"HARIPUR, Khyber Pakhtunkhwa","suggested_area":true,"score":9600,"longitude":72.93331909179688,"latitude":33.99429702758789,"facility_name":"","pvout_average_mean":1473.5857633087498,"pvout_average_min":1454.9557640050168,"pvout_average_max":1486.587176983173,"population":1003031,"count":163490},{"id":"d43acca9-2ca0-4cc2-b164-9d5e38cfa4b0","GID_2":"PK33","municipality":"MANSEHRA, Khyber Pakhtunkhwa","suggested_area":true,"score":1400,"longitude":73.1993125,"latitude":34.3286855,"facility_name":"","pvout_average_mean":1084.755617504707,"pvout_average_min":1070.2977147454383,"pvout_average_max":1097.7551871690175,"population":1556460,"count":239275},{"id":"b889aa28-b747-4c1b-a28f-109dc2110e0c","GID_2":"PK34","municipality":"TORGHAR, Khyber Pakhtunkhwa","suggested_area":true,"score":1230,"longitude":67.90039,"latitude":30.0325,"facility_name":"","pvout_average_mean":1543.7621271147145,"pvout_average_min":1541.1202594564973,"pvout_average_max":1546.4328832832173,"population":171395,"count":26464},{"id":"dc9ffc7b-5640-413d-9f86-d8af21f66860","GID_2":"PK35","municipality":"KOHISTAN, Khyber Pakhtunkhwa","suggested_area":true,"score":1200,"longitude":73.5,"latitude":35.25,"facility_name":"","pvout_average_mean":1475.1863300111806,"pvout_average_min":1467.70852946549,"pvout_average_max":1483.4128426750788,"population":784711,"count":101911},{"id":"2a3a4435-0868-4032-bc3c-dec3354a89c7","GID_2":"PK36","municipality":"HANGU, Khyber Pakhtunkhwa","suggested_area":true,"score":6800,"longitude":71.0575407,"latitude":33.527996,"facility_name":"","pvout_average_mean":1498.355825611804,"pvout_average_min":1494.4757642424509,"pvout_average_max":1502.2842258639103,"population":9613.625957489014,"count":267},{"id":"f65ba491-fb2d-4ea7-a51f-05dfd285bbb9","GID_2":"PK37","municipality":"KARAK, Khyber Pakhtunkhwa","suggested_area":true,"score":2400,"longitude":71.0950863,"latitude":33.1160464,"facility_name":"","pvout_average_mean":1481.4183876769855,"pvout_average_min":1476.3176283836365,"pvout_average_max":1487.5791854858398,"population":706299,"count":73144},{"id":"8a2c1f5f-ce2b-486e-ac6a-bb88ee3e5b35","GID_2":"PK38","municipality":"KOHAT, Khyber Pakhtunkhwa","suggested_area":true,"score":2340,"longitude":71.4399944,"latitude":33.5967144,"facility_name":"","pvout_average_mean":1480.1045689582825,"pvout_average_min":1478.4350881576538,"pvout_average_max":1481.7478976249695,"population":993874,"count":121344},{"id":"d1ceee79-3058-4bb3-97d8-3a8393b1a1c5","GID_2":"PK39","municipality":"MARDAN,  Khyber Pakhtunkhwa","suggested_area":true,"score":5443,"longitude":72.03529357910156,"latitude":34.19316864013672,"facility_name":"","pvout_average_mean":1450.447072538154,"pvout_average_min":1447.4184374042586,"pvout_average_max":1453.527432789522,"population":2373061,"count":311868},{"id":"310d9c0a-05c6-4e85-96d1-d9cc5c316e06","GID_2":"PK40","municipality":"SWABI,  Khyber Pakhtunkhwa","suggested_area":true,"score":3432,"longitude":72.1025761,"latitude":34.2215152,"facility_name":"","pvout_average_mean":1485.3076561673097,"pvout_average_min":1472.6146302711306,"pvout_average_max":1495.8538462721456,"population":1624616,"count":214209},{"id":"7c1b66aa-5544-485c-8329-7135bae4dcdc","GID_2":"PK41","municipality":"CHARSADDA,  Khyber Pakhtunkhwa","suggested_area":true,"score":5344,"longitude":71.7337719,"latitude":34.1461506,"facility_name":"","pvout_average_mean":1346.2453502551468,"pvout_average_min":1286.0895277454008,"pvout_average_max":1381.5005399642453,"population":1616198,"count":221058},{"id":"2a538795-3680-49ea-8f4f-f1ac9ab4e64b","GID_2":"PK42","municipality":"NOWSHERA,  Khyber Pakhtunkhwa","suggested_area":true,"score":2422,"longitude":71.981283,"latitude":34.0155606,"facility_name":"","pvout_average_mean":1470.8446567055325,"pvout_average_min":1458.7381111520235,"pvout_average_max":1475.321430644051,"population":1518540,"count":198808},{"id":"50ca9f5d-a1a4-4d1f-8886-ce3ab156acf8","GID_2":"PK43","municipality":"PESHAWAR, Khyber Pakhtunkhwa","suggested_area":true,"score":2342,"longitude":71.5787458,"latitude":34.0123846,"facility_name":"","pvout_average_mean":1414.5405685943185,"pvout_average_min":1403.8112858543711,"pvout_average_max":1422.1383450090393,"population":4269079,"count":489843},{"id":"8df42f81-be23-43af-86a1-7c5964afe57f","GID_2":"PK44","municipality":"BUNER,  Khyber Pakhtunkhwa","suggested_area":true,"score":5343,"longitude":72.3020941,"latitude":34.5560931,"facility_name":"","pvout_average_mean":1442.8455277318644,"pvout_average_min":1434.8505028689056,"pvout_average_max":1450.52899397854,"population":897319,"count":94095},{"id":"0d5086ea-6469-454e-9d87-b82625ef976f","GID_2":"PK45","municipality":"CHITRAL,  Khyber Pakhtunkhwa","suggested_area":true,"score":2323,"longitude":71.7901897,"latitude":35.850889,"facility_name":"","pvout_average_mean":1564.0938862832013,"pvout_average_min":1552.387405591973,"pvout_average_max":1573.0739803723511,"population":447362,"count":61619},{"id":"6873036f-08a9-44ee-8453-f1155dbdfd4e","GID_2":"PK46","municipality":"Swat,  Khyber Pakhtunkhwa","suggested_area":true,"score":4343,"longitude":71.5902939,"latitude":34.3192277,"facility_name":"","pvout_average_mean":1442.0201980289823,"pvout_average_min":1434.5480022927989,"pvout_average_max":1448.9755190641984,"population":2309570,"count":274620},{"id":"6873036f-08a9-44ee-8453-f1155dbdfd4e","GID_2":"PK47","municipality":"Shangla,  Khyber Pakhtunkhwa","suggested_area":true,"score":3434,"longitude":72.848056,"latitude":34.956944,"facility_name":"","pvout_average_mean":1442.0201980289823,"pvout_average_min":1434.5480022927989,"pvout_average_max":1448.9755190641984,"population":757810,"count":89695},{"id":"ef2e102f-777b-4bc0-bc2e-bc0958439f48","GID_2":"PK48","municipality":"LOWER DIR,  Khyber Pakhtunkhwa","suggested_area":true,"score":8920,"longitude":72.0178486,"latitude":35.0933208,"facility_name":"","pvout_average_mean":1341.7966302296566,"pvout_average_min":1295.42724609375,"pvout_average_max":1383.9895342497548,"population":1435917,"count":155338},{"id":"5f9ec6d5-fcc1-4102-b2f3-ea4363867848","GID_2":"PK49","municipality":"UPPER DIR,  Khyber Pakhtunkhwa","suggested_area":true,"score":8800,"longitude":72.0126208,"latitude":35.1460298,"facility_name":"","pvout_average_mean":1543.5330181171564,"pvout_average_min":1512.0021911621093,"pvout_average_max":1567.4888449928978,"population":946421,"count":120228},{"id":"03fad980-053d-4d44-82c0-f5887674d4ab","GID_2":"PK50","municipality":"MALAKAND,  Khyber Pakhtunkhwa","suggested_area":true,"score":87200,"longitude":71.9318872,"latitude":34.5730269,"facility_name":"","pvout_average_mean":1433.2847139046255,"pvout_average_min":1422.005400211439,"pvout_average_max":1441.839238997993,"population":720295,"count":91414},{"id":"c6c12be7-54a2-493b-9acc-94a7005c23fd","GID_2":"PK51","municipality":"KHYBER AGENCY,  FATA","suggested_area":true,"score":8800,"longitude":71,"latitude":34,"facility_name":"","pvout_average_mean":1420.0761624068502,"pvout_average_min":1408.9227412864207,"pvout_average_max":1428.148732945539,"population":986973,"count":111558},{"id":"e5f5ebe8-faba-44a6-b1bb-09b3706ca2cc","GID_2":"PK52","municipality":"KURRAM AGENCY,  FATA","suggested_area":true,"score":2800,"longitude":70.333333,"latitude":33.75,"facility_name":"","pvout_average_mean":1499.3345217253036,"pvout_average_min":1489.0767545101148,"pvout_average_max":1509.8923982629453,"population":619553,"count":67244},{"id":"b2715e62-5b35-4aae-a7e6-1a80953944b1","GID_2":"PK53","municipality":"MOHMAND AGENCY,  FATA","suggested_area":true,"score":2400,"longitude":71.333333,"latitude":34.5,"facility_name":"","pvout_average_mean":1470.5569552819684,"pvout_average_min":1461.9236420566597,"pvout_average_max":1480.7463171505233,"population":466984,"count":48118},{"id":"b2715e62-5b35-4aae-a7e6-1a80953944b1","GID_2":"PK54","municipality":"NORTH WAZIRISTAN AGENCY,  FATA","suggested_area":true,"score":2400,"longitude":69.9550338,"latitude":32.9430659,"facility_name":"","pvout_average_mean":1470.5569552819684,"pvout_average_min":1461.9236420566597,"pvout_average_max":1480.7463171505233,"population":543254,"count":59003},{"id":"e1d0e673-49c4-40ff-8773-f48184c8cef4","GID_2":"PK55","municipality":"ORAKZAI AGENCY,  FATA","suggested_area":true,"score":8000,"longitude":71,"latitude":33.666667,"facility_name":"","pvout_average_mean":1580.4517317529226,"pvout_average_min":1561.594999880907,"pvout_average_max":1595.5650819359755,"population":254356,"count":31253},{"id":"50a6385e-4e4a-43aa-bda2-9bd8a8abfa44","GID_2":"PK56","municipality":"SOUTH WAZIRISTAN AGENCY,  FATA","suggested_area":true,"score":8100,"longitude":69.75,"latitude":32.333333,"facility_name":"","pvout_average_mean":1460.4691053139425,"pvout_average_min":1453.7615136959282,"pvout_average_max":1469.4654234336515,"population":679185,"count":80717},{"id":"07140e48-6043-4faa-9da7-2f72f62aacf4","GID_2":"PK57","municipality":"BAJAUR AGENCY,  FATA","suggested_area":true,"score":8070,"longitude":71.5249154,"latitude":34.7865284,"facility_name":"","pvout_average_mean":1480.8615568125936,"pvout_average_min":1478.839414690981,"pvout_average_max":1482.826649883006,"population":1093684,"count":120457},{"id":"07140e48-6043-4faa-9da7-2f72f62aacf4","GID_2":"PK58","municipality":"FR BANNU, FATA","suggested_area":true,"score":8800,"longitude":70.6692655,"latitude":32.9297732,"facility_name":"","pvout_average_mean":1480.8615568125936,"pvout_average_min":1478.839414690981,"pvout_average_max":1482.826649883006,"population":43114,"count":4188},{"id":"218f060e-da4b-4020-8377-b685354e3da3","GID_2":"PK59","municipality":"FR D.I.KHAN, FATA","suggested_area":true,"score":1500,"longitude":70.122496,"latitude":31.6877771,"facility_name":"","pvout_average_mean":1383.5325142632462,"pvout_average_min":1361.5184783935547,"pvout_average_max":1399.5559405517579,"population":68556,"count":6924},{"id":"e2e3ab7c-c0c0-4f43-9b3a-b7d8f3eb2f83","GID_2":"PK60","municipality":"FR KOHAT, FATA","suggested_area":true,"score":9200,"longitude":71.5096642,"latitude":33.7259635,"facility_name":"","pvout_average_mean":1535.217173165323,"pvout_average_min":1523.2714584812973,"pvout_average_max":1547.3650876440183,"population":118578,"count":14339},{"id":"dcdfb5d0-ad5f-497a-adb4-1e80cea07237","GID_2":"PK61","municipality":"FR LAKKI MARWAT, FATA","suggested_area":true,"score":8800,"longitude":70.3598758,"latitude":32.6412165,"facility_name":"","pvout_average_mean":1516.7577661326636,"pvout_average_min":1506.9194242990561,"pvout_average_max":1523.7061191307107,"population":26359,"count":14339},{"id":"381d1dcc-1c83-47a0-9b97-08a95cd15f39","GID_2":"PK62","municipality":"FR PESHAWAR,  FATA","suggested_area":true,"score":6800,"longitude":71.7355566,"latitude":33.8077677,"facility_name":"","pvout_average_mean":1398.9923499837787,"pvout_average_min":1381.7368494669597,"pvout_average_max":1417.6705277760823,"population":64691,"count":7065},{"id":"86d5d6bc-7a17-4bf6-a46d-5f4fdbbd36e0","GID_2":"PK63","municipality":"FR TANK,  FATA","suggested_area":true,"score":6800,"longitude":70.2884528,"latitude":32.4340122,"facility_name":"","pvout_average_mean":1425.4265698011368,"pvout_average_min":1412.9182376861572,"pvout_average_max":1438.2821076711018,"population":36389,"count":4165},{"id":"50749deb-a248-4242-bbd9-69b21d71f39f","GID_2":"PK64","municipality":"VEHARI, Punjab","suggested_area":true,"score":6400,"longitude":72.3571401,"latitude":30.0502622,"facility_name":"","pvout_average_mean":1407.7218014334035,"pvout_average_min":1347.4626247545812,"pvout_average_max":1439.2856317490184,"population":2897446,"count":458068},{"id":"d5ac52ae-f697-42ab-9392-de8e43bdcc05","GID_2":"PK65","municipality":"LODHRAN, Punjab","suggested_area":true,"score":6080,"longitude":71.6344196,"latitude":29.5390395,"facility_name":"","pvout_average_mean":1502.5126295658577,"pvout_average_min":1492.2673147101152,"pvout_average_max":1512.0486180355674,"population":1700620,"count":262650},{"id":"24f5f13c-619e-47e7-a87a-96729635f21b","GID_2":"PK66","municipality":"KHANEWAL, Punjab","suggested_area":true,"score":7605,"longitude":71.9278916,"latitude":30.3022528,"facility_name":"","pvout_average_mean":1401.693194789945,"pvout_average_min":1379.3800768400492,"pvout_average_max":1428.6560945209703,"population":2921986,"count":466390},{"id":"deede4b2-4645-4b74-a2f3-74e173126ab2","GID_2":"PK67","municipality":"MUZAFFARGARH, Punajab","suggested_area":true,"score":6000,"longitude":71.1888419,"latitude":30.0778083,"facility_name":"","pvout_average_mean":1402.0887143672892,"pvout_average_min":1397.130962813528,"pvout_average_max":1409.3904900801808,"population":4322009,"count":667515},{"id":"48846086-6538-492c-8897-8e8215eb67df","GID_2":"PK68","municipality":"LAYYAH, Punjab","suggested_area":true,"score":4800,"longitude":70.9455995,"latitude":30.964868,"facility_name":"","pvout_average_mean":1457.0986584482007,"pvout_average_min":1440.3544210342163,"pvout_average_max":1468.1779961407503,"population":1824230,"count":281929},{"id":"6a09135a-f719-4a25-a4a2-0510ceadb40e","GID_2":"PK69","municipality":"Rajanpur, Punjab","suggested_area":true,"score":7700,"longitude":69.9627914428711,"latitude":28.738508224487305,"facility_name":"","pvout_average_mean":1508.2896782695443,"pvout_average_min":1471.2527890412705,"pvout_average_max":1533.5417898426886,"population":1995958,"count":262490},{"id":"292394e9-1205-4a76-aeee-2407026fc55c","GID_2":"PK70","municipality":"Rahimyar Khan, Punjab","suggested_area":true,"score":3600,"longitude":70.3036512,"latitude":28.417607,"facility_name":"","pvout_average_mean":1491.646949476762,"pvout_average_min":1425.1204104216201,"pvout_average_max":1555.1652168605638,"population":4814006,"count":701520},{"id":"3b196777-b4c5-4859-bc40-6f83b7d6d419","GID_2":"PK71","municipality":"Bahawalnagar, Punjab","suggested_area":true,"score":3600,"longitude":73.2527621,"latitude":29.9935922,"facility_name":"","pvout_average_mean":1476.3616322961657,"pvout_average_min":1468.157935101053,"pvout_average_max":1485.6703172766645,"population":2981919,"count":481276},{"id":"13df2f62-156d-485c-a901-75bd592a6520","GID_2":"PK72","municipality":"Pakpattan, Punjab","suggested_area":true,"score":7320,"longitude":73.3891875,"latitude":30.3422503,"facility_name":"","pvout_average_mean":1478.8774920555616,"pvout_average_min":1473.0311499423667,"pvout_average_max":1483.9170368799096,"population":1823687,"count":304405},{"id":"36bbb13f-f88c-4410-8f81-57b7671cd6e4","GID_2":"PK73","municipality":"Okara, Punjab","suggested_area":true,"score":7320,"longitude":73.4493301,"latitude":30.8091281,"facility_name":"","pvout_average_mean":1445.4415891447188,"pvout_average_min":1441.1206581657702,"pvout_average_max":1449.4517875629697,"population":3039139,"count":493180},{"id":"96c3de23-87ab-4e65-8b75-c8td8a1a5dfca","GID_2":"PK74","municipality":"Toba Tek Singh, Punjab","suggested_area":true,"score":7200,"longitude":72.4860799,"latitude":30.9777056,"facility_name":"","pvout_average_mean":1581.9099674178258,"pvout_average_min":1573.1521945529514,"pvout_average_max":1589.4055820041233,"population":2190015,"count":338469},{"id":"962e61c1-a1cb-4ab8-a8b6-157ca22994f6","GID_2":"PK75","municipality":"Jhang, Punjab","suggested_area":true,"score":7088,"longitude":72.6963493,"latitude":33.6748125,"facility_name":"","pvout_average_mean":1455.6671006024858,"pvout_average_min":1438.7985667428054,"pvout_average_max":1471.492977163886,"population":2743416,"count":427390},{"id":"837744ef3r-0aa5-486f-9991-e7f10563d4db","GID_2":"PK76","municipality":"Chiniot, Punjab","suggested_area":true,"score":7080,"longitude":72.9800348,"latitude":31.7219942,"facility_name":"","pvout_average_mean":1582.7615409305427,"pvout_average_min":1579.7144678837835,"pvout_average_max":1585.705300196416,"population":1369740,"count":218607},{"id":"83774ef3-0aa5-486f-9991-e7f10563d4db","GID_2":"PK77","municipality":"Bhakkar, Punjab","suggested_area":true,"score":2800,"longitude":71.0676914,"latitude":31.6303103,"facility_name":"","pvout_average_mean":1582.7615409305427,"pvout_average_min":1579.7144678837835,"pvout_average_max":1585.705300196416,"population":1650518,"count":268244},{"id":"83774ef3-0aa25-486f-9991-e7f10563d4db","GID_2":"PK78","municipality":"Khushab, Punjab","suggested_area":true,"score":7800,"longitude":72.3515792,"latitude":32.2903666,"facility_name":"","pvout_average_mean":1582.7615409305427,"pvout_average_min":1579.7144678837835,"pvout_average_max":1585.705300196416,"population":1281299,"count":211686},{"id":"83774ef3-0aar5-486f-9991-e7f10563d4db","GID_2":"PK79","municipality":"Sargodha, Punjab","suggested_area":true,"score":7050,"longitude":72.6782574,"latitude":32.0898005,"facility_name":"","pvout_average_mean":1582.7615409305427,"pvout_average_min":1579.7144678837835,"pvout_average_max":1585.705300196416,"population":3703588,"count":600224},{"id":"83774ef3-02aa5-486f-9991-e7f10563d4db","GID_2":"PK80","municipality":"Mianwali, Punjab","suggested_area":true,"score":7800,"longitude":71.5239763,"latitude":32.5705533,"facility_name":"","pvout_average_mean":1582.7615409305427,"pvout_average_min":1579.7144678837835,"pvout_average_max":1585.705300196416,"population":1546094,"count":238006},{"id":"83774ef3-0raa5-486f-9991-e7f10563d4db","GID_2":"PK81","municipality":"Gujranwala, Punjab","suggested_area":true,"score":1280,"longitude":74.1933745,"latitude":32.1525312,"facility_name":"","pvout_average_mean":1582.7615409305427,"pvout_average_min":1579.7144678837835,"pvout_average_max":1585.705300196416,"population":5014196,"count":747214},{"id":"83774ef3-w0aa5-234-9991-e7f10563d4db","GID_2":"PK82","municipality":"Gujrat, Punjab","suggested_area":true,"score":7080,"longitude":74.071481,"latitude":32.5686782,"facility_name":"","pvout_average_mean":1582.7615409305427,"pvout_average_min":1579.7144678837835,"pvout_average_max":1585.705300196416,"population":2756110,"count":442399},{"id":"83774ef3-0aa5-22342-9991-e7f10563d4db","GID_2":"PK83","municipality":"Hafizabad, Punjab","suggested_area":true,"score":4000,"longitude":73.6857558,"latitude":32.072546,"facility_name":"","pvout_average_mean":1582.7615409305427,"pvout_average_min":1579.7144678837835,"pvout_average_max":1585.705300196416,"population":1156957,"count":175180},{"id":"83774ef3-0aa5-23422-9991-e7f10563d4db","GID_2":"PK84","municipality":"Mandi Bahāuddīn, Punjab","suggested_area":true,"score":7080,"longitude":73.48431,"latitude":32.58339,"facility_name":"","pvout_average_mean":1582.7615409305427,"pvout_average_min":1579.7144678837835,"pvout_average_max":1585.705300196416,"population":1593292,"count":252120},{"id":"83774ef3-0aa5-243223-9991-e7f10563d4db","GID_2":"PK85","municipality":"Narowal, Punjab","suggested_area":true,"score":7085,"longitude":74.872238,"latitude":32.1009752,"facility_name":"","pvout_average_mean":1582.7615409305427,"pvout_average_min":1579.7144678837835,"pvout_average_max":1585.705300196416,"population":1709757,"count":239916},{"id":"83774ef3-0aa5-486f-2342-e7f10563d4db","GID_2":"PK86","municipality":"Sialkot, Punjab","suggested_area":true,"score":7088,"longitude":74.5411575,"latitude":32.4935378,"facility_name":"","pvout_average_mean":1582.7615409305427,"pvout_average_min":1579.7144678837835,"pvout_average_max":1585.705300196416,"population":3893672,"count":574143},{"id":"83774ef3-0aa5-486f-23423-e7f10563d4db","GID_2":"PK87","municipality":"Kasur, Punjab","suggested_area":true,"score":7800,"longitude":74.4478314,"latitude":31.1175143,"facility_name":"","pvout_average_mean":1582.7615409305427,"pvout_average_min":1579.7144678837835,"pvout_average_max":1585.705300196416,"population":3454996,"count":526166},{"id":"83774ef3-0aa5-486f-23234-e7f10563d4db","GID_2":"PK88","municipality":"Nankana Sahib, Punjab","suggested_area":true,"score":7800,"longitude":73.6933253,"latitude":31.4446506,"facility_name":"","pvout_average_mean":1582.7615409305427,"pvout_average_min":1579.7144678837835,"pvout_average_max":1585.705300196416,"population":1356374,"count":215934},{"id":"83774ef3-0aa5-486f-23424-e7f10563d4db","GID_2":"PK89","municipality":"Jhelum, Tehsil Jhelum, Punjab","suggested_area":true,"score":7200,"longitude":73.719388,"latitude":32.9247256,"facility_name":"","pvout_average_mean":1582.7615409305427,"pvout_average_min":1579.7144678837835,"pvout_average_max":1585.705300196416,"population":1222650,"count":204792},{"id":"83774ef3-0aa5-486f-43234-e7f10563d4db","GID_2":"PK90","municipality":"Sheikhupura, Punjab","suggested_area":true,"score":1080,"longitude":73.9864014,"latitude":31.7085285,"facility_name":"","pvout_average_mean":1582.7615409305427,"pvout_average_min":1579.7144678837835,"pvout_average_max":1585.705300196416,"population":3460426,"count":517850},{"id":"83774ef3-0aa5-486f-2233-e7f10563d4db","GID_2":"PK91","municipality":"Chakwal, Punjab","suggested_area":true,"score":7000,"longitude":72.8629763,"latitude":32.932827,"facility_name":"","pvout_average_mean":1582.7615409305427,"pvout_average_min":1579.7144678837835,"pvout_average_max":1585.705300196416,"population":1495982,"count":266109},{"id":"83774ef3-0aa5-486f-3223-e7f10563d4db","GID_2":"PK92","municipality":"Sheikhupura, Punjab","suggested_area":true,"score":800,"longitude":72.3610911,"latitude":33.7695323,"facility_name":"","pvout_average_mean":1582.7615409305427,"pvout_average_min":1579.7144678837835,"pvout_average_max":1585.705300196416,"population":1883556,"count":306649},{"id":"83774ef3-0aa5-486f-9991-e7f1053333b","GID_2":"PK93","municipality":"Kashmore, Sindh","suggested_area":true,"score":7900,"longitude":69.5814755,"latitude":28.4322915,"facility_name":"","pvout_average_mean":1782.7615409305427,"pvout_average_min":1579.7144678837835,"pvout_average_max":2085.705300196416,"population":1089169,"count":185143},{"id":"83774ef3-0aa5-486f-9991-e7f10563d4db","GID_2":"PK94","municipality":"Qambar, Sindh","suggested_area":true,"score":2800,"longitude":67.9996747,"latitude":27.5892431,"facility_name":"","pvout_average_mean":1682.7615409305427,"pvout_average_min":1579.7144678837835,"pvout_average_max":1985.705300196416,"population":1341042,"count":223154},{"id":"83774ef3-0aa5-486f-99391-e7f105ew63d4","GID_2":"PK95","municipality":"Larkana, Sindh","suggested_area":true,"score":2820,"longitude":68.2101509,"latitude":27.5564798,"facility_name":"","pvout_average_mean":1682.7615409305427,"pvout_average_min":1579.7144678837835,"pvout_average_max":1985.705300196416,"population":1524391,"count":261331},{"id":"83774ef3-0aa5-486f-9991-e7f10563d4db","GID_2":"PK96","municipality":"Shikarpur, Sindh","suggested_area":true,"score":2080,"longitude":68.6465513,"latitude":27.9577983,"facility_name":"","pvout_average_mean":1782.7615409305427,"pvout_average_min":1579.7144678837835,"pvout_average_max":2009.705300196416,"population":1231481,"count":207555},{"id":"83774ef3-0aa5-486f-99391-e7f10563d4db","GID_2":"PK97","municipality":"Ghotki, Sindh","suggested_area":true,"score":2080,"longitude":69.3134549,"latitude":27.9939917,"facility_name":"","pvout_average_mean":1582.7615409305427,"pvout_average_min":1579.7144678837835,"pvout_average_max":1585.705300196416,"population":1646318,"count":296670},{"id":"83774ef3-0aa5-486f-99r91-e7f10563d4db","GID_2":"PK98","municipality":"Khairpur, Sindh","suggested_area":true,"score":3080,"longitude":68.7634109,"latitude":27.5295402,"facility_name":"","pvout_average_mean":1782.7615409305427,"pvout_average_min":1679.7144678837835,"pvout_average_max":2085.705300196416,"population":2404334,"count":412857},{"id":"83774ef3-0aa5-486f-9991-e7fw10563d4db","GID_2":"PK99","municipality":"Sukkur, Sindh","suggested_area":true,"score":1920,"longitude":68.8588754,"latitude":27.6961883,"facility_name":"","pvout_average_mean":1682.7615409305427,"pvout_average_min":1579.7144678837835,"pvout_average_max":2009.705300196416,"population":1487903,"count":263042},{"id":"83774ef3-0aa5f-486f-9991-e7f10563d4db","GID_2":"PK100","municipality":"Badin, Sindh","suggested_area":true,"score":1800,"longitude":68.8401509,"latitude":24.6551671,"facility_name":"","pvout_average_mean":1582.7615409305427,"pvout_average_min":1579.7144678837835,"pvout_average_max":1585.705300196416,"population":1804516,"count":359376},{"id":"83774ef3-0aa5-486fw-9991-e7f10563d4db","GID_2":"PK101","municipality":"Kashmore, Sindh","suggested_area":true,"score":1920,"longitude":69.5814755,"latitude":28.4322915,"facility_name":"","pvout_average_mean":1719.7615409305427,"pvout_average_min":1679.7144678837835,"pvout_average_max":2085.705300196416,"population":1089169,"count":185143},{"id":"b9122505-88ef-4a16-9fw6c3-7bd1ed3a9d0e","GID_2":"PK102","municipality":"Dadu, Sindh","suggested_area":true,"score":1560,"longitude":67.7804974,"latitude":26.7274836,"facility_name":"","pvout_average_mean":1718.605657536725,"pvout_average_min":1517.3270263671875,"pvout_average_max":2019.1529541015625,"population":1550266,"count":286810},{"id":"e69500bc-4ab4-48cb-wfw-89c42296ca89","GID_2":"PK103","municipality":"Hyderabad, Sindh","suggested_area":true,"score":2200,"longitude":68.3750376,"latitude":25.3801017,"facility_name":"","pvout_average_mean":1752.14111328125,"pvout_average_min":1691.0406494140625,"pvout_average_max":2075.614990234375,"population":2199463,"count":434869},{"id":"aedf0e6f-147b-41f6-9550-e88f1f07f02c","GID_2":"PK104","municipality":"Jamshoro, Sindh","suggested_area":true,"score":1760,"longitude":68.266172,"latitude":25.4007232,"facility_name":"","pvout_average_mean":1754.3079744664635,"pvout_average_min":1684.583984375,"pvout_average_max":2013.595947265625,"population":993142,"count":180922},{"id":"1c6c9028-7a2e-4d99-8453-5dc2aadde039","GID_2":"PK105","municipality":"Matiari, Sindh","suggested_area":true,"score":1200,"longitude":68.4454874,"latitude":25.5971858,"facility_name":"","pvout_average_mean":1411.9652557373047,"pvout_average_min":1406.2120361328125,"pvout_average_max":1423.7440185546875,"population":769349,"count":143023},{"id":"5a2b6686-1bb3-4c6e-a7e7-0f324120bbe5","GID_2":"PK106","municipality":"Sujawal, Sindh","suggested_area":true,"score":1200,"longitude":68.101716,"latitude":24.6021112,"facility_name":"","pvout_average_mean":1516.1529541015625,"pvout_average_min":1512.865966796875,"pvout_average_max":1519.43994140625,"population":781967,"count":153018},{"id":"60f03eb1-8dc3-40bf-bc80-14a7af2ad54c","GID_2":"PK107","municipality":"Tando Allahyar, Sindh","suggested_area":true,"score":1200,"longitude":68.7198264,"latitude":25.4619907,"facility_name":"","pvout_average_mean":1386.2453206380208,"pvout_average_min":1379.1839599609375,"pvout_average_max":1394.1590576171875,"population":836887,"count":165503},{"id":"68318d83-56ff-45dc-bf8d-ee6a054b83ac","GID_2":"PK108","municipality":"Tando Muhammad Khan, Sindh","suggested_area":true,"score":4200,"longitude":68.5343177,"latitude":25.122798,"facility_name":"","pvout_average_mean":1724.214163643973,"pvout_average_min":1612.4219970703125,"pvout_average_max":2030.3189697265625,"population":677228,"count":131565},{"id":"f40b42c4-e3b8-4dd4-b011-e240ca11d8d0","GID_2":"PK109","municipality":"Thatta , Sindh","suggested_area":true,"score":1500,"longitude":67.9240283,"latitude":24.7469,"facility_name":"","pvout_average_mean":1723.6787109375,"pvout_average_min":1655.4429931640625,"pvout_average_max":2097.81201171875,"population":979817,"count":184868},{"id":"e2ff24c4-c854-41ce-9389-04d5aebfdade","GID_2":"PK110","municipality":"Malir, Sindh","suggested_area":true,"score":1340,"longitude":67.1969187,"latitude":24.8959185,"facility_name":"","pvout_average_mean":1638.3544921875,"pvout_average_min":1537.259033203125,"pvout_average_max":1939.449951171875,"population":2008901,"count":338257},{"id":"1cf5f263-85f0-4dbe-9a3d-664d2b067eb3","GID_2":"PK111","municipality":"Tharparkar, Sindh","suggested_area":true,"score":1506,"longitude":70.2410474,"latitude":24.9431856,"facility_name":"","pvout_average_mean":1608.4637451171875,"pvout_average_min":1738.719970703125,"pvout_average_max":2044.56396484375,"population":1649661,"count":301625},{"id":"667e0877-6438-479d-9e71-c11033b147c1","GID_2":"PK112","municipality":"Umarkot, Sindh","suggested_area":true,"score":1200,"longitude":69.7376286,"latitude":25.354928,"facility_name":"","pvout_average_mean":1434.4583333333333,"pvout_average_min":1429.5880126953125,"pvout_average_max":1440.1810302734375,"population":1073146,"count":212356},{"id":"5f27471f-ca90-4f56-8804-a6067056065f","GID_2":"PK113","municipality":"Sanghar, Sindh","suggested_area":true,"score":1600,"longitude":68.3068077,"latitude":28.1806564,"facility_name":"","pvout_average_mean":1612.6296321907776,"pvout_average_min":1511.77001953125,"pvout_average_max":1913.595947265625,"population":2057057,"count":374609},{"id":"684bf855-07b0-4e2c-a249-8c5a384a75bb","GID_2":"PK114","municipality":"Naushahro Feroze, Sindh","suggested_area":true,"score":1700,"longitude":68.208357,"latitude":26.8066722,"facility_name":"","pvout_average_mean":1740.9117024739583,"pvout_average_min":1536.89404296875,"pvout_average_max":2023.10302734375,"population":1612373,"count":275693},{"id":"ec80922d-200e-4856-ae74-f95a6f2d5ffe","GID_2":"PK115","municipality":"Nawābshāh, Sindh ","suggested_area":true,"score":1200,"longitude":68.166667,"latitude":26.583333,"facility_name":"","pvout_average_mean":1734.7243182842549,"pvout_average_min":1618.7099609375,"pvout_average_max":2015.008056640625,"population":1612847,"count":297133},{"id":"bd49e2a5-4098-43f4-a1b5-9c0bfb429460","GID_2":"PK116","municipality":"Awaran, Balochistan ","suggested_area":true,"score":8600,"longitude":65.2312,"latitude":26.4555,"facility_name":"","pvout_average_mean":1973.8880092075894,"pvout_average_min":1852.5989990234375,"pvout_average_max":2190.5849609375,"population":121680,"count":18094},{"id":"02877565-510d-4635-a554-0c05dfa79be7","GID_2":"PK117","municipality":"Kalat , Balochistan","suggested_area":true,"score":13800,"longitude":66.5843344,"latitude":29.0333406,"facility_name":"","pvout_average_mean":2196.477392578125,"pvout_average_min":1949.2130126953125,"pvout_average_max":2293.595947265625,"population":412232,"count":55497},{"id":"b4bb2484-bb61-4825-817f-dcb8f04cc33b","GID_2":"PK118","municipality":"Kharan , Balochistan","suggested_area":true,"score":13400,"longitude":65.4207071,"latitude":28.5807325,"facility_name":"","pvout_average_mean":2057.5405796595983,"pvout_average_min":1860.904052734375,"pvout_average_max":2143.2900390625,"population":156152,"count":24035},{"id":"229bbb87-3e19-4a04-a817-d0ffeea3627c","GID_2":"PK119","municipality":"Khuzdar, Balochistan","suggested_area":true,"score":12807,"longitude":66.6166537,"latitude":27.8000135,"facility_name":"","pvout_average_mean":2184.0745239257812,"pvout_average_min":1916.343994140625,"pvout_average_max":2187.8050537109375,"population":802207,"count":120405},{"id":"8bd523dd-8a54-48cd-9e15-5a47d156d82b","GID_2":"PK120","municipality":"Lasbela , Balochistan","suggested_area":true,"score":1800,"longitude":66.583333,"latitude":25.75,"facility_name":"","pvout_average_mean":1702.8650268554688,"pvout_average_min":1605.8470458984375,"pvout_average_max":2013.883056640625,"population":574292,"count":93165},{"id":"4f9b6355-5336-4ea6-8764-db4be3c76e93","GID_2":"PK121","municipality":"Mastung , Balochistan","suggested_area":true,"score":12600,"longitude":66.8500394,"latitude":29.800043,"facility_name":"","pvout_average_mean":2184,"pvout_average_min":1950,"pvout_average_max":2484,"population":266461,"count":38801},{"id":"7bd1d2b0-3e35-4ad9-85c4-dd244af1933c","GID_2":"PK122","municipality":"Washuk, Balochistan","suggested_area":true,"score":11800,"longitude":64.8092316,"latitude":27.7220346,"facility_name":"","pvout_average_mean":2090.736328125,"pvout_average_min":1873.761962890625,"pvout_average_max":2185.3189697265625,"population":176206,"count":31540},{"id":"9e791df8-0262-432e-aabb-c81e95179704","GID_2":"PK123","municipality":"Gwadar, Balochistan","suggested_area":true,"score":8000,"longitude":62.3254553,"latitude":25.1479816,"facility_name":"","pvout_average_mean":1785.7906422334559,"pvout_average_min":1738.9110107421875,"pvout_average_max":2068.010009765625,"population":263514,"count":39922},{"id":"1a12cd29-1f89-4069-ba8d-c28a7b1123b6","GID_2":"PK124","municipality":"Kech, Balochistan","suggested_area":true,"score":9000,"longitude":63.2974521,"latitude":26.2902308,"facility_name":"","pvout_average_mean":1978.2090250651042,"pvout_average_min":1837.8260498046875,"pvout_average_max":2173.1309814453125,"population":909116,"count":138403},{"id":"1b6ad3b6-4444-4adb-a9e0-4fa815ac3e26","GID_2":"PK125","municipality":"Panjgur, Balochistan","suggested_area":true,"score":12800,"longitude":64.1153339,"latitude":26.9616074,"facility_name":"","pvout_average_mean":2240,"pvout_average_min":1940,"pvout_average_max":2256,"population":316385,"count":42628},{"id":"023e7925-6ce8-4b70-b40e-c5f5ed7cd7b7","GID_2":"PK126","municipality":"Sherani, Balochistan","suggested_area":true,"score":2000,"longitude":69.7066,"latitude":31.7542,"facility_name":"","pvout_average_mean":1885.5095167602917,"pvout_average_min":1800.5989990234375,"pvout_average_max":1997.3159790039062,"population":153116,"count":21213},{"id":"7d8fbf1b-4d8d-458d-b131-6ee981630357","GID_2":"PK127","municipality":"Mūsa Khel Bāzār, Balochistān","suggested_area":true,"score":8900,"longitude":69.82295,"latitude":30.86057,"facility_name":"","pvout_average_mean":1958.9520263671875,"pvout_average_min":1833.404052734375,"pvout_average_max":2022.5,"population":167017,"count":24826},{"id":"905b9388-f9a4-4208-906e-2ebc1cbe53d2","GID_2":"PK128","municipality":"Loralai , Balochistan","suggested_area":true,"score":12600,"longitude":68.6000654,"latitude":30.366865,"facility_name":"","pvout_average_mean":2136.0926513671875,"pvout_average_min":1933.6319580078125,"pvout_average_max":2234.9189453125,"population":397400,"count":55876},{"id":"4835d286-4fc0-4b9b-b5a2-814fd8b64f5f","GID_2":"PK129","municipality":"Qila Saifullāh, Balochistan","suggested_area":true,"score":12400,"longitude":68.33996,"latitude":30.95392,"facility_name":"","pvout_average_mean":2116.34541015625,"pvout_average_min":1902.22705078125,"pvout_average_max":2249.8800048828125,"population":342814,"count":53478},{"id":"178772a8-9496-45e9-a6d5-b34b135b6050","GID_2":"PK130","municipality":"Barkhan , Balochistan","suggested_area":true,"score":12400,"longitude":69.5230398,"latitude":29.9003125,"facility_name":"","pvout_average_mean":2009.1553372469816,"pvout_average_min":1856.1590576171875,"pvout_average_max":2075.9749755859375,"population":171556,"count":26041},{"id":"7b7a3815-b42d-4954-b9c4-749d160eb76a","GID_2":"PK131","municipality":"Ziarat, Balochistan","suggested_area":true,"score":12450,"longitude":67.7262144,"latitude":30.3810473,"facility_name":"","pvout_average_mean":2141.7227478027344,"pvout_average_min":1920.5140380859375,"pvout_average_max":2388.8360595703125,"population":160422,"count":28999},{"id":"ccf66a80-1f8a-46a6-9b2f-e4afe10d21ef","GID_2":"PK132","municipality":"Dera Bugti, Balochistan","suggested_area":true,"score":8070,"longitude":69.1500387,"latitude":29.0334014,"facility_name":"","pvout_average_mean":1757.0876597849633,"pvout_average_min":1763.9859619140625,"pvout_average_max":2029.7159423828125,"population":312603,"count":46585},{"id":"2a483536-b7cd-43b3-b84f-c6c483085eb4","GID_2":"PK133","municipality":"Harnai , Balochistan","suggested_area":true,"score":8500,"longitude":67.9379629,"latitude":30.100492,"facility_name":"","pvout_average_mean":2010.2493286132812,"pvout_average_min":2082.4534912109375,"pvout_average_max":1829.5670166015625,"population":97017,"count":17353},{"id":"8db131dd-e40c-403a-b671-7cfb08da436f","GID_2":"PK134","municipality":"Kohlu, Balochistan","suggested_area":true,"score":11820,"longitude":69.2500203,"latitude":29.8999977,"facility_name":"","pvout_average_mean":2085.8054809570312,"pvout_average_min":1861.2259521484375,"pvout_average_max":2096.8189697265625,"population":214350,"count":26827},{"id":"87ef3166-1b2e-4947-be54-4f262e0e2357","GID_2":"PK135","municipality":"Lehri, Balochistan","suggested_area":true,"score":1800,"longitude":66.792186,"latitude":27.727022,"facility_name":"","pvout_average_mean":1660.9793003627233,"pvout_average_min":1537.073974609375,"pvout_average_max":1933.510009765625,"population":118046,"count":18651},{"id":"38d4bad8-1ebe-4110-a945-882b74911249","GID_2":"PK136","municipality":"Quetta, Balochistan","suggested_area":true,"score":120000,"longitude":67.0172447,"latitude":30.1957677,"facility_name":"","pvout_average_mean":2177,"pvout_average_min":1938,"pvout_average_max":2318,"population":2275699,"count":276711},{"id":"d6ded50a-d664-4bab-b6c2-af240300d3f8","GID_2":"PK137","municipality":"Pishin , Balochistan","suggested_area":true,"score":800,"longitude":66.9966427,"latitude":30.5828663,"facility_name":"","pvout_average_mean":2185.894147600446,"pvout_average_min":2185.9530029296875,"pvout_average_max":2333.68798828125,"population":736481,"count":128080},{"id":"7afa8612-c3f4-4ba1-9d58-179cac3bed2a","GID_2":"PK138","municipality":"Nushki , Balochistan","suggested_area":true,"score":11800,"longitude":66.0166996,"latitude":29.550001,"facility_name":"","pvout_average_mean":2155.167999267578,"pvout_average_min":1836.241943359375,"pvout_average_max":2244.2769775390625,"population":178796,"count":22662},{"id":"db234119-f492-492f-8cec-b3bfdbae4f4e","GID_2":"PK139","municipality":"Qila Abdullāh, Balochistan","suggested_area":true,"score":11500,"longitude":66.66083,"latitude":30.72917,"facility_name":"","pvout_average_mean":2185.0779825846357,"pvout_average_min":1947.156005859375,"pvout_average_max":2332.364990234375,"population":757578,"count":97210},{"id":"0abdf6da-8bed-43f3-bddb-c805877ac638","GID_2":"PK140","municipality":"CHAGAI, Balochistan","suggested_area":true,"score":1470,"longitude":63.1860714,"latitude":28.8841915,"facility_name":"","pvout_average_mean":2037.2774083754596,"pvout_average_min":1861.8890380859375,"pvout_average_max":2166.240966796875,"population":226008,"count":31081},{"id":"f6f8cee5-e6af-4360-bdfb-90e6a4e2f3d9","GID_2":"PK141","municipality":"Sohbatpur, Balochistan","suggested_area":true,"score":1460,"longitude":68.5435959,"latitude":28.5181349,"facility_name":"","pvout_average_mean":1683.8921356201172,"pvout_average_min":1567.8245239257812,"pvout_average_max":1981.5900268554688,"population":200538,"count":30523},{"id":"9fe09209-c857-4688-a851-d33ab911b283","GID_2":"PK142","municipality":"Nasīrābād, Balochistan","suggested_area":true,"score":1430,"longitude":68.166667,"latitude":28.333333,"facility_name":"","pvout_average_mean":1667,"pvout_average_min":1519.9,"pvout_average_max":1966.2,"population":490538,"count":66681},{"id":"f4c5d314-a4c9-41d6-be02-ae18171c77aa","GID_2":"PK143","municipality":"Kachhi, Balochistan","suggested_area":true,"score":1390,"longitude":67.5317602,"latitude":27.9463141,"facility_name":"","pvout_average_mean":1631.080908203125,"pvout_average_min":1428.3140258789062,"pvout_average_max":1929.1400146484375,"population":237030,"count":30140},{"id":"08d98635-60ec-46be-bad2-8d89ea401015","GID_2":"PK144","municipality":"Jhal Magsi, Balochistan","suggested_area":true,"score":1620,"longitude":67.4543321,"latitude":28.2851797,"facility_name":"","pvout_average_mean":1667.0015869140625,"pvout_average_min":1576.4189453125,"pvout_average_max":1965.3409423828125,"population":149225,"count":25047},{"id":"e3cc461a-ff82-485d-90bc-3cf55966d0c7","GID_2":"PK145","municipality":"Jāfarābād , Balochistan","suggested_area":true,"score":1500,"longitude":68.166667,"latitude":28.416667,"facility_name":"","pvout_average_mean":1614.6004943847656,"pvout_average_min":1522.865966796875,"pvout_average_max":1915.7879638671875,"population":513813,"count":79273},{"id":"eb5bc186-d311-47b6-93e0-fac15905d37d","GID_2":"PK146","municipality":"Ghanche , GB","suggested_area":true,"score":1100,"longitude":76.3452153,"latitude":35.1631256,"facility_name":"","pvout_average_mean":1357.1122029622395,"pvout_average_min":1187.741943359375,"pvout_average_max":1519.884033203125,"population":88366,"count":1},{"id":"17b27098-f27e-4346-8516-029fff1b541c","GID_2":"PK147","municipality":"Skardu , GB","suggested_area":true,"score":1140,"longitude":75.6074375,"latitude":35.2875284,"facility_name":"","pvout_average_mean":1410.4108154296875,"pvout_average_min":1484.8590087890625,"pvout_average_max":1645.0860595703125,"population":214848,"count":1},{"id":"95996e8d-c0f1-486d-8976-1ecb7f628cc5","GID_2":"PK148","municipality":"Shigar, GB","suggested_area":true,"score":1420,"longitude":75.7371078,"latitude":35.4226164,"facility_name":"","pvout_average_mean":1575.9495239257812,"pvout_average_min":1605.0360107421875,"pvout_average_max":1776.863037109375,"population":109000,"count":1},{"id":"79767b6e-9d84-468f-a86d-d0ced9679e59","GID_2":"PK149","municipality":"Kharmang, GB","suggested_area":true,"score":1230,"longitude":76.2138494,"latitude":34.9686792,"facility_name":"","pvout_average_mean":1593.1863356370193,"pvout_average_min":1392.739013671875,"pvout_average_max":629.2230224609375,"population":13.042839050292969,"count":20000},{"id":"d72b39f7-7c09-4b97-bfd0-35fa5b41695e","GID_2":"PK150","municipality":"Roundu, GB","suggested_area":true,"score":1050,"longitude":75.2270763,"latitude":35.5965778,"facility_name":"","pvout_average_mean":1403.7338256835938,"pvout_average_min":1295.333984375,"pvout_average_max":1598.2559814453125,"population":109000,"count":1},{"id":"af000fb9-66de-4a09-bc20-7b0664d20f9f","GID_2":"PK151","municipality":"Ghizer, Gilgit-Baltistan","suggested_area":true,"score":1350,"longitude":74.1776751,"latitude":36.0185538,"facility_name":"","pvout_average_mean":1277.0713297526042,"pvout_average_min":965.8800048828125,"pvout_average_max":1378.1669921875,"population":120218,"count":1},{"id":"a8308a83-41a7-4f65-b8de-fa76406d6bc7","GID_2":"PK152","municipality":"Gilgit, Gilgit-Baltistan","suggested_area":true,"score":1400,"longitude":74.314044,"latitude":35.9208102,"facility_name":"","pvout_average_mean":1445.0506184895833,"pvout_average_min":1444.928955078125,"pvout_average_max":1445.2939453125,"population":243324,"count":1},{"id":"51f64668-83bd-4ac7-9767-bcddfaf5b5a9","GID_2":"PK153","municipality":"Hunza, GB","suggested_area":true,"score":800,"longitude":75.5,"latitude":36.5,"facility_name":"","pvout_average_mean":1679.4658726283483,"pvout_average_min":1217.1700439453125,"pvout_average_max":1721.552978515625,"population":150000,"count":1},{"id":"dee6dfa3-7826-4e7c-95b9-5bb0608ec353","GID_2":"PK154","municipality":"Sumayar Nagar,GB","suggested_area":true,"score":700,"longitude":74.6546555,"latitude":36.3053692,"facility_name":"","pvout_average_mean":1365.8159057617188,"pvout_average_min":1297.3680419921875,"pvout_average_max":1394.8900146484375,"population":51837,"count":1},{"id":"eef50efc-3250-4c39-9f77-92dc06788a28","GID_2":"PK155","municipality":"Astore, GB","suggested_area":true,"score":804,"longitude":74.8569804,"latitude":35.3566152,"facility_name":"","pvout_average_mean":1335.7545510316506,"pvout_average_min":1103.3690185546875,"pvout_average_max":1554.8690185546875,"population":71666,"count":1},{"id":"9abcd549-1126-481a-8759-a7cdd207af7a","GID_2":"PK156","municipality":"Diamer-Bhasha Dam, Gilgit-Baltistan","suggested_area":true,"score":900,"longitude":73.7386604,"latitude":35.52228352,"facility_name":"","pvout_average_mean":1373.0949951171874,"pvout_average_min":1229.9539794921875,"pvout_average_max":1534.7020263671875,"population":0,"count":0}]